$GPGGA,131917.17,5001.2652,N,3613.0586,E,3,08,0.0,0.0,M,0.0,M,0.0,0000*49
$SDDBT,68.3,f,20.8,M,1.0,F*00
$GPGGA,131917.17,5001.2684,N,3613.0570,E,3,08,0.0,0.0,M,0.0,M,0.0,0000*4b
$SDDBT,75.0,f,22.9,M,1.1,F*0d
$GPGGA,131917.17,5001.2718,N,3613.0556,E,3,08,0.0,0.0,M,0.0,M,0.0,0000*4b
$SDDBT,76.3,f,23.3,M,1.2,F*05
$GPGGA,131917.17,5001.2754,N,3613.0537,E,3,08,0.0,0.0,M,0.0,M,0.0,0000*44
$SDDBT,84.5,f,25.7,M,1.3,F*0d
$GPGGA,131917.17,5001.2795,N,3613.0524,E,3,08,0.0,0.0,M,0.0,M,0.0,0000*4b
$SDDBT,90.1,f,27.5,M,1.4,F*0b
$GPGGA,131917.17,5001.2837,N,3613.0502,E,3,08,0.0,0.0,M,0.0,M,0.0,0000*48
$SDDBT,97.7,f,29.8,M,1.5,F*08
$GPGGA,131917.17,5001.2881,N,3613.0484,E,3,08,0.0,0.0,M,0.0,M,0.0,0000*4a
$SDDBT,99.5,f,30.3,M,1.5,F*07
$GPGGA,131917.17,5001.2921,N,3613.0463,E,3,08,0.0,0.0,M,0.0,M,0.0,0000*48
$SDDBT,93.2,f,28.4,M,1.4,F*05
$GPGGA,131917.17,5001.2959,N,3613.0434,E,3,08,0.0,0.0,M,0.0,M,0.0,0000*45
$SDDBT,92.6,f,28.2,M,1.4,F*06
$GPGGA,131917.17,5001.2993,N,3613.0400,E,3,08,0.0,0.0,M,0.0,M,0.0,0000*44
$SDDBT,88.8,f,27.1,M,1.3,F*08
$GPGGA,131917.17,5001.3031,N,3613.0374,E,3,08,0.0,0.0,M,0.0,M,0.0,0000*40
$SDDBT,89.5,f,27.3,M,1.4,F*01
$GPGGA,131917.18,5001.3063,N,3613.0343,E,3,08,0.0,0.0,M,0.0,M,0.0,0000*4c
$SDDBT,83.1,f,25.3,M,1.3,F*0a
$GPGGA,131917.18,5001.3091,N,3613.0305,E,3,08,0.0,0.0,M,0.0,M,0.0,0000*43
$SDDBT,82.7,f,25.2,M,1.3,F*0c
$GPGGA,131917.18,5001.3121,N,3613.0265,E,3,08,0.0,0.0,M,0.0,M,0.0,0000*4e
$SDDBT,85.5,f,26.1,M,1.3,F*09
$GPGGA,131917.18,5001.3153,N,3613.0226,E,3,08,0.0,0.0,M,0.0,M,0.0,0000*4c
$SDDBT,88.9,f,27.1,M,1.3,F*09
$GPGGA,131917.18,5001.3183,N,3613.0179,E,3,08,0.0,0.0,M,0.0,M,0.0,0000*48
$SDDBT,93.2,f,28.4,M,1.4,F*05
$GPGGA,131917.18,5001.3212,N,3613.0132,E,3,08,0.0,0.0,M,0.0,M,0.0,0000*4c
$SDDBT,92.4,f,28.2,M,1.4,F*04
$GPGGA,131917.18,5001.3237,N,3613.0076,E,3,08,0.0,0.0,M,0.0,M,0.0,0000*4a
$SDDBT,95.8,f,29.2,M,1.5,F*0f
$GPGGA,131917.18,5001.3268,N,3613.0021,E,3,08,0.0,0.0,M,0.0,M,0.0,0000*42
$SDDBT,102.4,f,31.2,M,1.6,F*36
$GPGGA,131917.18,5001.3298,N,3612.9967,E,3,08,0.0,0.0,M,0.0,M,0.0,0000*4e
$SDDBT,100.8,f,30.7,M,1.5,F*3f
$GPGGA,131917.18,5001.3335,N,3612.9918,E,3,08,0.0,0.0,M,0.0,M,0.0,0000*40
$SDDBT,106.2,f,32.4,M,1.6,F*31
$GPGGA,131917.18,5001.3379,N,3612.9874,E,3,08,0.0,0.0,M,0.0,M,0.0,0000*43
$SDDBT,114.8,f,35.0,M,1.7,F*3a
$GPGGA,131917.18,5001.3422,N,3612.9833,E,3,08,0.0,0.0,M,0.0,M,0.0,0000*49
$SDDBT,110.6,f,33.7,M,1.7,F*31
$GPGGA,131917.18,5001.3464,N,3612.9792,E,3,08,0.0,0.0,M,0.0,M,0.0,0000*4f
$SDDBT,107.9,f,32.9,M,1.6,F*36
$GPGGA,131917.18,5001.3507,N,3612.9761,E,3,08,0.0,0.0,M,0.0,M,0.0,0000*47
$SDDBT,104.8,f,31.9,M,1.6,F*37
$GPGGA,131917.18,5001.3555,N,3612.9735,E,3,08,0.0,0.0,M,0.0,M,0.0,0000*41
$SDDBT,112.0,f,34.1,M,1.7,F*34
$GPGGA,131917.18,5001.3610,N,3612.9720,E,3,08,0.0,0.0,M,0.0,M,0.0,0000*47
$SDDBT,121.9,f,37.1,M,1.8,F*31
$GPGGA,131917.18,5001.3665,N,3612.9710,E,3,08,0.0,0.0,M,0.0,M,0.0,0000*46
$SDDBT,121.8,f,37.1,M,1.8,F*30
$GPGGA,131917.18,5001.3719,N,3612.9692,E,3,08,0.0,0.0,M,0.0,M,0.0,0000*47
$SDDBT,120.1,f,36.6,M,1.8,F*3e
$GPGGA,131917.18,5001.3771,N,3612.9685,E,3,08,0.0,0.0,M,0.0,M,0.0,0000*4f
$SDDBT,113.9,f,34.7,M,1.7,F*3a
$GPGGA,131917.18,5001.3820,N,3612.9675,E,3,08,0.0,0.0,M,0.0,M,0.0,0000*4b
$SDDBT,108.9,f,33.2,M,1.6,F*33
$GPGGA,131917.18,5001.3867,N,3612.9670,E,3,08,0.0,0.0,M,0.0,M,0.0,0000*4d
$SDDBT,103.2,f,31.5,M,1.6,F*36
$GPGGA,131917.18,5001.3916,N,3612.9651,E,3,08,0.0,0.0,M,0.0,M,0.0,0000*49
$SDDBT,111.7,f,34.1,M,1.7,F*30
$GPGGA,131917.18,5001.3964,N,3612.9626,E,3,08,0.0,0.0,M,0.0,M,0.0,0000*4c
$SDDBT,109.6,f,33.4,M,1.7,F*3a
$GPGGA,131917.18,5001.4014,N,3612.9603,E,3,08,0.0,0.0,M,0.0,M,0.0,0000*42
$SDDBT,114.4,f,34.9,M,1.7,F*3e
$GPGGA,131917.18,5001.4068,N,3612.9589,E,3,08,0.0,0.0,M,0.0,M,0.0,0000*48
$SDDBT,119.8,f,36.5,M,1.8,F*3e
$GPGGA,131917.18,5001.4120,N,3612.9574,E,3,08,0.0,0.0,M,0.0,M,0.0,0000*47
$SDDBT,116.6,f,35.5,M,1.8,F*3c
$GPGGA,131917.18,5001.4174,N,3612.9566,E,3,08,0.0,0.0,M,0.0,M,0.0,0000*45
$SDDBT,117.7,f,35.9,M,1.8,F*30
$GPGGA,131917.18,5001.4231,N,3612.9557,E,3,08,0.0,0.0,M,0.0,M,0.0,0000*45
$SDDBT,126.7,f,38.6,M,1.9,F*31
$GPGGA,131917.18,5001.4287,N,3612.9555,E,3,08,0.0,0.0,M,0.0,M,0.0,0000*4a
$SDDBT,121.9,f,37.2,M,1.8,F*32
$GPGGA,131917.18,5001.4342,N,3612.9558,E,3,08,0.0,0.0,M,0.0,M,0.0,0000*4f
$SDDBT,121.7,f,37.1,M,1.8,F*3f
$GPGGA,131917.18,5001.4399,N,3612.9568,E,3,08,0.0,0.0,M,0.0,M,0.0,0000*4a
$SDDBT,125.1,f,38.1,M,1.9,F*33
$GPGGA,131917.18,5001.4455,N,3612.9580,E,3,08,0.0,0.0,M,0.0,M,0.0,0000*4b
$SDDBT,124.5,f,37.9,M,1.9,F*31
$GPGGA,131917.18,5001.4511,N,3612.9582,E,3,08,0.0,0.0,M,0.0,M,0.0,0000*48
$SDDBT,121.6,f,37.1,M,1.8,F*3e
$GPGGA,131917.18,5001.4569,N,3612.9579,E,3,08,0.0,0.0,M,0.0,M,0.0,0000*43
$SDDBT,128.2,f,39.1,M,1.9,F*3c
$GPGGA,131917.18,5001.4629,N,3612.9577,E,3,08,0.0,0.0,M,0.0,M,0.0,0000*4a
$SDDBT,131.2,f,40.0,M,2.0,F*31
$GPGGA,131917.18,5001.4688,N,3612.9585,E,3,08,0.0,0.0,M,0.0,M,0.0,0000*4c
$SDDBT,130.3,f,39.7,M,2.0,F*38
$GPGGA,131917.18,5001.4748,N,3612.9581,E,3,08,0.0,0.0,M,0.0,M,0.0,0000*45
$SDDBT,131.2,f,40.0,M,2.0,F*31
$GPGGA,131917.18,5001.4805,N,3612.9576,E,3,08,0.0,0.0,M,0.0,M,0.0,0000*4b
$SDDBT,125.7,f,38.3,M,1.9,F*37
$GPGGA,131917.18,5001.4864,N,3612.9580,E,3,08,0.0,0.0,M,0.0,M,0.0,0000*45
$SDDBT,127.4,f,38.8,M,1.9,F*3d
$GPGGA,131917.18,5001.4923,N,3612.9570,E,3,08,0.0,0.0,M,0.0,M,0.0,0000*48
$SDDBT,131.2,f,40.0,M,2.0,F*31
$GPGGA,131917.18,5001.4981,N,3612.9549,E,3,08,0.0,0.0,M,0.0,M,0.0,0000*4a
$SDDBT,131.2,f,40.0,M,2.0,F*31
$GPGGA,131917.18,5001.5040,N,3612.9534,E,3,08,0.0,0.0,M,0.0,M,0.0,0000*45
$SDDBT,129.6,f,39.5,M,2.0,F*37
$GPGGA,131917.18,5001.5096,N,3612.9517,E,3,08,0.0,0.0,M,0.0,M,0.0,0000*4f
$SDDBT,124.2,f,37.9,M,1.9,F*36
$GPGGA,131917.18,5001.5154,N,3612.9515,E,3,08,0.0,0.0,M,0.0,M,0.0,0000*42
$SDDBT,128.9,f,39.3,M,2.0,F*3f
$GPGGA,131917.18,5001.5214,N,3612.9502,E,3,08,0.0,0.0,M,0.0,M,0.0,0000*43
$SDDBT,131.2,f,40.0,M,2.0,F*31
$GPGGA,131917.18,5001.5273,N,3612.9498,E,3,08,0.0,0.0,M,0.0,M,0.0,0000*40
$SDDBT,131.2,f,40.0,M,2.0,F*31
$GPGGA,131917.18,5001.5331,N,3612.9486,E,3,08,0.0,0.0,M,0.0,M,0.0,0000*48
$SDDBT,127.6,f,38.9,M,1.9,F*3e
$GPGGA,131917.18,5001.5390,N,3612.9483,E,3,08,0.0,0.0,M,0.0,M,0.0,0000*46
$SDDBT,128.8,f,39.3,M,2.0,F*3e
$GPGGA,131917.18,5001.5449,N,3612.9469,E,3,08,0.0,0.0,M,0.0,M,0.0,0000*41
$SDDBT,130.5,f,39.8,M,2.0,F*31
$GPGGA,131917.18,5001.5508,N,3612.9462,E,3,08,0.0,0.0,M,0.0,M,0.0,0000*4e
$SDDBT,130.6,f,39.8,M,2.0,F*32
$GPGGA,131917.18,5001.5567,N,3612.9449,E,3,08,0.0,0.0,M,0.0,M,0.0,0000*4e
$SDDBT,131.2,f,40.0,M,2.0,F*31
$GPGGA,131917.18,5001.5627,N,3612.9441,E,3,08,0.0,0.0,M,0.0,M,0.0,0000*41
$SDDBT,131.2,f,40.0,M,2.0,F*31
$GPGGA,131917.18,5001.5687,N,3612.9442,E,3,08,0.0,0.0,M,0.0,M,0.0,0000*48
$SDDBT,131.2,f,40.0,M,2.0,F*31
$GPGGA,131917.18,5001.5746,N,3612.9429,E,3,08,0.0,0.0,M,0.0,M,0.0,0000*49
$SDDBT,130.7,f,39.8,M,2.0,F*33
$GPGGA,131917.18,5001.5803,N,3612.9428,E,3,08,0.0,0.0,M,0.0,M,0.0,0000*46
$SDDBT,124.7,f,38.0,M,1.9,F*35
$GPGGA,131917.18,5001.5862,N,3612.9428,E,3,08,0.0,0.0,M,0.0,M,0.0,0000*41
$SDDBT,129.0,f,39.3,M,2.0,F*37
$GPGGA,131917.18,5001.5919,N,3612.9424,E,3,08,0.0,0.0,M,0.0,M,0.0,0000*40
$SDDBT,124.2,f,37.9,M,1.9,F*36
$GPGGA,131917.18,5001.5978,N,3612.9437,E,3,08,0.0,0.0,M,0.0,M,0.0,0000*45
$SDDBT,131.2,f,40.0,M,2.0,F*31
$GPGGA,131917.18,5001.6037,N,3612.9451,E,3,08,0.0,0.0,M,0.0,M,0.0,0000*44
$SDDBT,130.3,f,39.7,M,2.0,F*38
$GPGGA,131917.18,5001.6095,N,3612.9464,E,3,08,0.0,0.0,M,0.0,M,0.0,0000*4a
$SDDBT,129.9,f,39.6,M,2.0,F*3b
$GPGGA,131917.18,5001.6152,N,3612.9488,E,3,08,0.0,0.0,M,0.0,M,0.0,0000*42
$SDDBT,128.6,f,39.2,M,1.9,F*3b
$GPGGA,131917.18,5001.6208,N,3612.9510,E,3,08,0.0,0.0,M,0.0,M,0.0,0000*4e
$SDDBT,126.5,f,38.5,M,1.9,F*30
$GPGGA,131917.18,5001.6260,N,3612.9545,E,3,08,0.0,0.0,M,0.0,M,0.0,0000*40
$SDDBT,124.8,f,38.0,M,1.9,F*3a
$GPGGA,131917.18,5001.6311,N,3612.9589,E,3,08,0.0,0.0,M,0.0,M,0.0,0000*47
$SDDBT,127.5,f,38.9,M,1.9,F*3d
$GPGGA,131917.18,5001.6367,N,3612.9624,E,3,08,0.0,0.0,M,0.0,M,0.0,0000*42
$SDDBT,131.2,f,40.0,M,2.0,F*31
$GPGGA,131917.18,5001.6419,N,3612.9670,E,3,08,0.0,0.0,M,0.0,M,0.0,0000*4d
$SDDBT,131.2,f,40.0,M,2.0,F*31
$GPGGA,131917.18,5001.6471,N,3612.9716,E,3,08,0.0,0.0,M,0.0,M,0.0,0000*42
$SDDBT,131.2,f,40.0,M,2.0,F*31
$GPGGA,131917.18,5001.6527,N,3612.9747,E,3,08,0.0,0.0,M,0.0,M,0.0,0000*44
$SDDBT,131.2,f,40.0,M,2.0,F*31
$GPGGA,131917.18,5001.6581,N,3612.9780,E,3,08,0.0,0.0,M,0.0,M,0.0,0000*43
$SDDBT,125.5,f,38.3,M,1.9,F*35
$GPGGA,131917.18,5001.6632,N,3612.9812,E,3,08,0.0,0.0,M,0.0,M,0.0,0000*4c
$SDDBT,122.1,f,37.2,M,1.9,F*38
$GPGGA,131917.18,5001.6683,N,3612.9855,E,3,08,0.0,0.0,M,0.0,M,0.0,0000*45
$SDDBT,125.8,f,38.4,M,1.9,F*3f
$GPGGA,131917.18,5001.6730,N,3612.9902,E,3,08,0.0,0.0,M,0.0,M,0.0,0000*4f
$SDDBT,122.5,f,37.3,M,1.9,F*3d
$GPGGA,131917.18,5001.6772,N,3612.9954,E,3,08,0.0,0.0,M,0.0,M,0.0,0000*4a
$SDDBT,118.0,f,36.0,M,1.8,F*32
$GPGGA,131917.18,5001.6820,N,3612.9999,E,3,08,0.0,0.0,M,0.0,M,0.0,0000*43
$SDDBT,123.6,f,37.7,M,1.9,F*3b
$GPGGA,131917.18,5001.6874,N,3613.0042,E,3,08,0.0,0.0,M,0.0,M,0.0,0000*45
$SDDBT,131.2,f,40.0,M,2.0,F*31
$GPGGA,131917.18,5001.6928,N,3613.0078,E,3,08,0.0,0.0,M,0.0,M,0.0,0000*44
$SDDBT,130.2,f,39.7,M,2.0,F*39
$GPGGA,131917.18,5001.6986,N,3613.0104,E,3,08,0.0,0.0,M,0.0,M,0.0,0000*4a
$SDDBT,131.2,f,40.0,M,2.0,F*31
$GPGGA,131917.18,5001.7041,N,3613.0139,E,3,08,0.0,0.0,M,0.0,M,0.0,0000*47
$SDDBT,131.2,f,40.0,M,2.0,F*31
$GPGGA,131917.18,5001.7096,N,3613.0178,E,3,08,0.0,0.0,M,0.0,M,0.0,0000*48
$SDDBT,131.2,f,40.0,M,2.0,F*31
$GPGGA,131917.18,5001.7150,N,3613.0208,E,3,08,0.0,0.0,M,0.0,M,0.0,0000*47
$SDDBT,127.0,f,38.7,M,1.9,F*36
$GPGGA,131917.18,5001.7205,N,3613.0223,E,3,08,0.0,0.0,M,0.0,M,0.0,0000*4d
$SDDBT,121.5,f,37.0,M,1.8,F*3c
$GPGGA,131917.18,5001.7262,N,3613.0248,E,3,08,0.0,0.0,M,0.0,M,0.0,0000*41
$SDDBT,128.9,f,39.3,M,2.0,F*3f
$GPGGA,131917.18,5001.7317,N,3613.0263,E,3,08,0.0,0.0,M,0.0,M,0.0,0000*4b
$SDDBT,124.2,f,37.9,M,1.9,F*36
$GPGGA,131917.18,5001.7370,N,3613.0279,E,3,08,0.0,0.0,M,0.0,M,0.0,0000*41
$SDDBT,117.9,f,35.9,M,1.8,F*3e
$GPGGA,131917.18,5001.7424,N,3613.0284,E,3,08,0.0,0.0,M,0.0,M,0.0,0000*45
$SDDBT,118.8,f,36.2,M,1.8,F*38
$GPGGA,131917.18,5001.7480,N,3613.0296,E,3,08,0.0,0.0,M,0.0,M,0.0,0000*48
$SDDBT,123.5,f,37.6,M,1.9,F*39
$GPGGA,131917.18,5001.7533,N,3613.0310,E,3,08,0.0,0.0,M,0.0,M,0.0,0000*4e
$SDDBT,118.2,f,36.0,M,1.8,F*30
$GPGGA,131917.18,5001.7585,N,3613.0321,E,3,08,0.0,0.0,M,0.0,M,0.0,0000*41
$SDDBT,114.9,f,35.0,M,1.7,F*3b
$GPGGA,131917.18,5001.7636,N,3613.0338,E,3,08,0.0,0.0,M,0.0,M,0.0,0000*42
$SDDBT,113.1,f,34.5,M,1.7,F*30
